Latitude,Longitude,Name,imageUrl
42.005709,21.4174425,Macedonian Museum of Natural History,https://www.google.com/imgres?imgurl=https%3A%2F%2Fupload.wikimedia.org%2Fwikipedia%2Fmk%2Fthumb%2F7%2F73%2FPrirodonaucen_muzej_makedonija.zgrada.24.8.2013.1.JPG%2F220px-Prirodonaucen_muzej_makedonija.zgrada.24.8.2013.1.JPG&tbnid=O1ewoGGGhFRvJM&vet=12ahUKEwiRjqWd0KiDAxW2_bsIHTCRC4UQMygBegQIARBG..i&imgrefurl=https%3A%2F%2Fmk.wikipedia.org%2Fwiki%2F%25D0%259F%25D1%2580%25D0%25B8%25D1%2580%25D0%25BE%25D0%25B4%25D0%25BE%25D0%25BD%25D0%25B0%25D1%2583%25D1%2587%25D0%25B5%25D0%25BD_%25D0%25BC%25D1%2583%25D0%25B7%25D0%25B5%25D1%2598_%25D0%25BD%25D0%25B0_%25D0%259C%25D0%25B0%25D0%25BA%25D0%25B5%25D0%25B4%25D0%25BE%25D0%25BD%25D0%25B8%25D1%2598%25D0%25B0&docid=FZqWIzNZYCvRyM&w=220&h=146&q=prirodno%20naucen%20muzej%20skopje&ved=2ahUKEwiRjqWd0KiDAxW2_bsIHTCRC4UQMygBegQIARBG
42.0008716,21.4338778,Skopje Fortress Gate,https://www.google.com/url?sa=i&url=https%3A%2F%2Fadhoc.ireason.mk%2F2022%2F04%2F07%2Fskopsko-kale%2F&psig=AOvVaw1I6zA11Q_siarFVvHznTot&ust=1703526606485000&source=images&cd=vfe&opi=89978449&ved=0CBIQjRxqFwoTCKCvvaXRqIMDFQAAAAAdAAAAABAD
42.0195738,20.960153,Tetovo Fortress,https://www.google.com/url?sa=i&url=https%3A%2F%2Ftetova.gov.mk%2Fgetartm.aspx%3Faid%3D275%26men%3D11%26lan%3D2%26sub%3D73&psig=AOvVaw2uGguO5icIFtPY6Yyv1KTb&ust=1703526633277000&source=images&cd=vfe&opi=89978449&ved=0CBIQjRxqFwoTCJCGp8TRqIMDFQAAAAAdAAAAABAD
42.0192462,20.9598834,St Athanasius Church,https://www.google.com/url?sa=i&url=https%3A%2F%2Fmk.wikipedia.org%2Fwiki%2F%25D0%25A6%25D1%2580%25D0%25BA%25D0%25B2%25D0%25B0_%25E2%2580%259E%25D0%25A1%25D0%25B2._%25D0%2590%25D1%2582%25D0%25B0%25D0%25BD%25D0%25B0%25D1%2581%25D0%25B8%25D1%2598%25E2%2580%259C_-_%25D0%25A3%25D1%2581%25D1%2598%25D0%25B5&psig=AOvVaw2DtyXpGv-p9bNyam1eT0ZS&ust=1703526783806000&source=images&cd=vfe&opi=89978449&ved=0CBIQjRxqFwoTCIjR3PnRqIMDFQAAAAAdAAAAABAD
41.3400467,21.2560134,Mechkin Kamen,https://www.google.com/url?sa=i&url=https%3A%2F%2Fjourneymacedonia.com%2Fcultural_historical%2Fmonuments%2Fmeckin-kamen-mechkin-kamen%2F&psig=AOvVaw0pa0QAKtIfp2d4xMJIeo2-&ust=1703527185623000&source=images&cd=vfe&opi=89978449&ved=0CBIQjRxqFwoTCLjho73TqIMDFQAAAAAdAAAAABAD
41.9188903,22.4069917,Monument of Freedom,https://www.google.com/url?sa=i&url=https%3A%2F%2Fmk.wikipedia.org%2Fwiki%2F%25D0%25A1%25D0%25BF%25D0%25BE%25D0%25BC%25D0%25B5%25D0%25BD%25D0%25B8%25D0%25BA_%25D0%25BD%25D0%25B0_%25D1%2581%25D0%25BB%25D0%25BE%25D0%25B1%25D0%25BE%25D0%25B4%25D0%25B0%25D1%2582%25D0%25B0_%2528%25D0%259A%25D0%25BE%25D1%2587%25D0%25B0%25D0%25BD%25D0%25B8%2529&psig=AOvVaw04jGCuVV0zniwpUHwcspiT&ust=1703527261754000&source=images&cd=vfe&opi=89978449&ved=0CBIQjRxqFwoTCOinv-LTqIMDFQAAAAAdAAAAABAD
41.956,21.45618,St. Athanasius,https://www.google.com/url?sa=i&url=https%3A%2F%2Fmk.wikipedia.org%2Fwiki%2F%25D0%25A6%25D1%2580%25D0%25BA%25D0%25B2%25D0%25B0_%25E2%2580%259E%25D0%25A1%25D0%25B2._%25D0%2590%25D1%2582%25D0%25B0%25D0%25BD%25D0%25B0%25D1%2581%25D0%25B8%25D1%2598%25E2%2580%259C_-_%25D0%2593%25D0%25BB%25D1%2583%25D0%25B2%25D0%25BE&psig=AOvVaw0FSGc4nI3xciLylrNChesn&ust=1703527363132000&source=images&cd=vfe&opi=89978449&ved=0CBIQjRxqFwoTCIjKuo3UqIMDFQAAAAAdAAAAABAW
41.7077548,22.8566138,Berovo Town Museum,https://www.google.com/url?sa=i&url=https%3A%2F%2Fcommons.wikimedia.org%2Fwiki%2FFile%3AMuzej_na_Grad_Berovo_%25281%2529.JPG&psig=AOvVaw2BfHIvapr9btmQGIC-d475&ust=1703527610913000&source=images&cd=vfe&opi=89978449&ved=0CBIQjRxqFwoTCMDkyIXVqIMDFQAAAAAdAAAAABAD
41.706763,22.8570672,Nativity of the Theotokos Church,https://www.google.com/url?sa=i&url=https%3A%2F%2Fen.wikipedia.org%2Fwiki%2FChurch_of_the_Nativity_of_the_Theotokos%2C_Skopje&psig=AOvVaw3wlmkCBJdpFXj5ZiKC0H9z&ust=1703527639876000&source=images&cd=vfe&opi=89978449&ved=0CBIQjRxqFwoTCICB1JPVqIMDFQAAAAAdAAAAABAD
41.963915,22.7749405,Sv. Bogorodica,https://www.google.com/url?sa=i&url=https%3A%2F%2Fmk.wikipedia.org%2Fwiki%2F%25D0%25A6%25D1%2580%25D0%25BA%25D0%25B2%25D0%25B0_%25E2%2580%259E%25D0%25A1%25D0%25B2._%25D0%2591%25D0%25BE%25D0%25B3%25D0%25BE%25D1%2580%25D0%25BE%25D0%25B4%25D0%25B8%25D1%2586%25D0%25B0%25E2%2580%259C_-_%25D0%259C%25D0%25B0%25D0%25BA%25D0%25B5%25D0%25B4%25D0%25BE%25D0%25BD%25D1%2581%25D0%25BA%25D0%25B8_%25D0%2591%25D1%2580%25D0%25BE%25D0%25B4&psig=AOvVaw2Bw4CoV5R5ACOiMZqGgHCF&ust=1703527666395000&source=images&cd=vfe&opi=89978449&ved=0CBIQjRxqFwoTCKCK5J7VqIMDFQAAAAAdAAAAABAE
41.4343634,22.0163228,Muzej Galerija Kavadarci,https://www.google.com/url?sa=i&url=https%3A%2F%2Fmuzej-galerija.org.mk%2F&psig=AOvVaw0NsRa4vFQ7ZAJjokD7yavG&ust=1703527708418000&source=images&cd=vfe&opi=89978449&ved=0CBIQjRxqFwoTCKDl0bbVqIMDFQAAAAAdAAAAABAP
41.112361,20.7961416,Robev Family House,https://www.google.com/url?sa=i&url=https%3A%2F%2Fen.wikipedia.org%2Fwiki%2FRobevi_family_house&psig=AOvVaw3o4-zIc3LPOHWlO5ChCJ2L&ust=1703527765928000&source=images&cd=vfe&opi=89978449&ved=0CBIQjRxqFwoTCNDJis_VqIMDFQAAAAAdAAAAABAD
41.9959035,21.4314474,Statue of Alexander the Great,https://www.google.com/url?sa=i&url=https%3A%2F%2Fwww.economist.com%2Feurope%2F2020%2F03%2F19%2Fthe-tricky-politics-of-tearing-down-statues-of-alexander-the-great&psig=AOvVaw3zRFP2Ifml9AUPz8AVVW45&ust=1703527784076000&source=images&cd=vfe&opi=89978449&ved=0CBIQjRxqFwoTCOCv7tXVqIMDFQAAAAAdAAAAABAD
41.6350875,22.4677492,Sv.Trojca,https://www.google.com/url?sa=i&url=https%3A%2F%2Fmk.wikipedia.org%2Fwiki%2F%25D0%25A6%25D1%2580%25D0%25BA%25D0%25B2%25D0%25B0_%25E2%2580%259E%25D0%25A1%25D0%25B2._%25D0%25A2%25D1%2580%25D0%25BE%25D0%25B8%25D1%2586%25D0%25B0%25E2%2580%259C_-_%25D0%25A0%25D0%25B0%25D0%25B4%25D0%25BE%25D0%25B2%25D0%25B8%25D1%2588&psig=AOvVaw3y7tebNV-uturywayGGf5R&ust=1703527797361000&source=images&cd=vfe&opi=89978449&ved=0CBIQjRxqFwoTCJj4md7VqIMDFQAAAAAdAAAAABAD
41.8820608,22.3328605,Holy Sunday Church,https://www.google.com/url?sa=i&url=https%3A%2F%2Fbitola.info%2Fsv-nedela-bitola%2F&psig=AOvVaw3Hj-vUH3W1S9wzeA_1sLn6&ust=1703527817931000&source=images&cd=vfe&opi=89978449&ved=0CBIQjRxqFwoTCMiamOfVqIMDFQAAAAAdAAAAABAG
41.1187289,20.8055843,Haji Durgut Mosque,https://www.google.com/url?sa=i&url=https%3A%2F%2Fwww.gpsmycity.com%2Fattractions%2Fhaji-turgut-mosque-34339.html&psig=AOvVaw0FZ603NOjli73pZ2Z-e6Dl&ust=1703527832635000&source=images&cd=vfe&opi=89978449&ved=0CBIQjRxqFwoTCIjEhPDVqIMDFQAAAAAdAAAAABAH
42.1580093,22.5162744,Ruen,https://www.google.com/url?sa=i&url=https%3A%2F%2Fwww.alamy.com%2Fruen-the-highest-peak-of-osogovo-mountain-right-on-the-border-between-bulgaria-and-north-macedonia-ruins-of-old-building-seen-at-macedonian-side-image259473758.html&psig=AOvVaw2tenhLCMKA7PUhhX6q4wWZ&ust=1703527853951000&source=images&cd=vfe&opi=89978449&ved=0CBIQjRxqFwoTCJDv3pfWqIMDFQAAAAAdAAAAABAD
40.9131005,20.7415162,Saint Petka Church,https://www.google.com/url?sa=i&url=https%3A%2F%2Fwww.dreamstime.com%2Fsaint-petka-church-naum-north-macedonia-lake-ohrid-area-including-one-most-popular-tourist-destinations-image225838852&psig=AOvVaw2JnMeVktcupGIvrMgHGXDk&ust=1703527935663000&source=images&cd=vfe&opi=89978449&ved=0CBIQjRxqFwoTCPjFg5_WqIMDFQAAAAAdAAAAABAD
41.1175675,20.813755,St. Gjorgjija Church,https://www.google.com/url?sa=i&url=https%3A%2F%2Foff-road.mk%2Fsaint-george-staro-nagoricane%2F&psig=AOvVaw2KZvaOpr8mXr5iUvGLkG7V&ust=1703527953847000&source=images&cd=vfe&opi=89978449&ved=0CBIQjRxqFwoTCNiQk6rWqIMDFQAAAAAdAAAAABAD
41.9505936,21.2991931,Monastery St. Andrej,https://www.google.com/url?sa=i&url=https%3A%2F%2Fwww.alamy.com%2Fst-andrew-sv-andrej-macedonian-orthodox-monastery-over-matka-lake-in-matka-canyon-near-skopje-north-macedonia-image342387710.html&psig=AOvVaw3HYGUFPTGIYy9kVbFNecK8&ust=1703527981786000&source=images&cd=vfe&opi=89978449&ved=0CBIQjRxqFwoTCKD_1L3WqIMDFQAAAAAdAAAAABAI
41.9984602,21.4349949,Philip II of Macedon Monument,https://www.google.com/url?sa=i&url=https%3A%2F%2Fcommons.wikimedia.org%2Fwiki%2FFile%3APhilip_II_of_Macedon_monument_%2526_square.jpg&psig=AOvVaw0s124g8Gg29GNlfD_2YlOp&ust=1703528079434000&source=images&cd=vfe&opi=89978449&ved=0CBIQjRxqFwoTCJjq1uTWqIMDFQAAAAAdAAAAABAM
41.9983057,21.4254968,Clement of Ohrid Monument,https://www.google.com/url?sa=i&url=https%3A%2F%2Fwww.flickr.com%2Fphotos%2F95482238%40N02%2F45737061165&psig=AOvVaw3lQ6aaDk68qbyN_8amVUB_&ust=1703528164633000&source=images&cd=vfe&opi=89978449&ved=0CBIQjRxqFwoTCOjy_o_XqIMDFQAAAAAdAAAAABAD
41.9993163,21.437162,Skanderbeg Monumnet,https://www.google.com/url?sa=i&url=https%3A%2F%2Fen.wikipedia.org%2Fwiki%2FSkanderbeg_Square%2C_Skopje&psig=AOvVaw1m1bXGGfU-QthayWtwSYvj&ust=1703528187953000&source=images&cd=vfe&opi=89978449&ved=0CBIQjRxqFwoTCPj3rpbXqIMDFQAAAAAdAAAAABAD
41.41718,21.53333,Holy Mother of God,https://www.google.com/url?sa=i&url=https%3A%2F%2Fwww.alamy.com%2Fstock-photo-macedonia-ohrid-church-of-the-holy-mother-of-god-perivleptos-st-kliment-139242603.html&psig=AOvVaw3tAz_YNn5XKaw8yLpS4kEO&ust=1703528205838000&source=images&cd=vfe&opi=89978449&ved=0CBIQjRxqFwoTCLiB7aPXqIMDFQAAAAAdAAAAABAD
41.4091983,22.2367525,Mother of God,https://www.google.com/url?sa=i&url=https%3A%2F%2Fmk.wikipedia.org%2Fwiki%2F%25D0%25A6%25D1%2580%25D0%25BA%25D0%25B2%25D0%25B0_%25E2%2580%259E%25D0%259F%25D1%2580%25D0%25B5%25D1%2581%25D0%25B2%25D0%25B5%25D1%2582%25D0%25B0_%25D0%2591%25D0%25BE%25D0%25B3%25D0%25BE%25D1%2580%25D0%25BE%25D0%25B4%25D0%25B8%25D1%2586%25D0%25B0%25E2%2580%259C_-_%25D0%2593%25D0%25BE%25D1%2580%25D0%25BD%25D0%25BE_%25D0%25A1%25D0%25B5%25D0%25BB%25D0%25BE&psig=AOvVaw2nDMKD5jbGOxvHwsFelFOH&ust=1703528339934000&source=images&cd=vfe&opi=89978449&ved=0CBIQjRxqFwoTCJC8iODXqIMDFQAAAAAdAAAAABAD
41.4094203,22.2541295,Markov Grad,https://www.google.com/url?sa=i&url=https%3A%2F%2Fcommons.wikimedia.org%2Fwiki%2FFile%3AMarkov_grad%2C_Prilep%2C_Macedonia_25.jpg&psig=AOvVaw2c6FtaUv3kNtOv-_dWkqnU&ust=1703528353823000&source=images&cd=vfe&opi=89978449&ved=0CBIQjRxqFwoTCOC5-ebXqIMDFQAAAAAdAAAAABAD
41.3831513,22.2878614,Monastery St. Nicholas,https://www.google.com/url?sa=i&url=http%3A%2F%2Fwww.prilepinfo.mk%2Fen%2Fheritage%2Fcultural-and-historical-heritage%2Fchurches-and-monasteries%2Fst-nikola&psig=AOvVaw0g9htn9GVOpqsmbTWiWSSc&ust=1703528368104000&source=images&cd=vfe&opi=89978449&ved=0CBIQjRxqFwoTCMiDzO7XqIMDFQAAAAAdAAAAABAD
42.2782511,21.8500367,Memorial Center ASNOM,https://www.google.com/url?sa=i&url=https%3A%2F%2Foff-road.mk%2Fpelince-asnom%2F&psig=AOvVaw2qo9FZ-awa_OjAFEyTa4V3&ust=1703528384905000&source=images&cd=vfe&opi=89978449&ved=0CBIQjRxqFwoTCICM2ZXYqIMDFQAAAAAdAAAAABAD
42.1068795,21.1545235,Orashko Kale,https://www.google.com/url?sa=i&url=https%3A%2F%2Fmapcarta.com%2FN2026891418&psig=AOvVaw0PJJjCPPoW6BsSo6zPEWY2&ust=1703528484005000&source=images&cd=vfe&opi=89978449&ved=0CBIQjRxqFwoTCNiPnK_YqIMDFQAAAAAdAAAAABAD
41.0738678,20.8043628,St. Stephen,https://www.google.com/url?sa=i&url=https%3A%2F%2Fvmacedonia.com%2Freligion%2Fchurches%2Fsvstefan-pancir.html&psig=AOvVaw14GHq3wyiM-en3i_i0mOWv&ust=1703528520215000&source=images&cd=vfe&opi=89978449&ved=0CBIQjRxqFwoTCJDg67jYqIMDFQAAAAAdAAAAABAH
41.3358485,21.5550074,People's hero Kuzman Josifoski-Pitu Monument,https://www.google.com/url?sa=i&url=https%3A%2F%2Fvmacedonia.com%2Fpolitics%2Fnational-heroes%2Fkuzman-josifovski-pitu.html&psig=AOvVaw11V5DgXRTGDzPHQq8AasNN&ust=1703528711330000&source=images&cd=vfe&opi=89978449&ved=0CBIQjRxqFwoTCOif3o_ZqIMDFQAAAAAdAAAAABAD
41.024615,21.3368929,Stefan Naumov-Stiv,https://www.google.com/url?sa=i&url=https%3A%2F%2Fpicryl.com%2Fmedia%2Fstiv-naumov-bitola-spomenik-2fbf56&psig=AOvVaw20x7XlELVw4bkyVuZLlz9W&ust=1703528818848000&source=images&cd=vfe&opi=89978449&ved=0CBIQjRxqFwoTCMiKj8TZqIMDFQAAAAAdAAAAABAD
41.3649692,21.2497316,Statue of Pitu Guli,https://www.google.com/url?sa=i&url=https%3A%2F%2Fwww.alamy.com%2Fskopje-north-macedonia-june-5-2022-monument-of-pitu-guli-sculpture-of-aromanian-revolutionary-in-ottoman-macedonia-image482763623.html&psig=AOvVaw0Jg5NE5i-zut1owIVoOXkT&ust=1703528850431000&source=images&cd=vfe&opi=89978449&ved=0CBIQjRxqFwoTCMDy3NLZqIMDFQAAAAAdAAAAABAD
41.3653856,21.2484409,Naum Naumoski-Borche,https://www.google.com/url?sa=i&url=https%3A%2F%2Fmk.wikipedia.org%2Fwiki%2F%25D0%25A1%25D0%25A3_%25E2%2580%259E%25D0%259D%25D0%25B0%25D1%2583%25D0%25BC_%25D0%259D%25D0%25B0%25D1%2583%25D0%25BC%25D0%25BE%25D0%25B2%25D1%2581%25D0%25BA%25D0%25B8_%25D0%2591%25D0%25BE%25D1%2580%25D1%2587%25D0%25B5%25E2%2580%259C_-_%25D0%259A%25D1%2580%25D1%2583%25D1%2588%25D0%25B5%25D0%25B2%25D0%25BE&psig=AOvVaw0xTBHUUoc2dt7oLGJCFOAz&ust=1703529100412000&source=images&cd=vfe&opi=89978449&ved=0CBIQjRxqFwoTCNC2lszaqIMDFQAAAAAdAAAAABAD
41.5516379,21.9751675,Roman theater,https://www.google.com/url?sa=i&url=https%3A%2F%2Fwww.traveloffpath.com%2Fthis-hugely-underrated-european-country-is-one-of-the-fastest-growing-hubs-for-digital-nomads%2Fancient-roman-theater-in-ohrid-city-on-the-shores-of-lake-ohrid-north-macedonia-balkan-peninsula-south-eastern-europe%2F&psig=AOvVaw3iBXHXUsRu9uXEiVU3XKgw&ust=1703529118173000&source=images&cd=vfe&opi=89978449&ved=0CBIQjRxqFwoTCMiSgNPaqIMDFQAAAAAdAAAAABAD
42.0836218,21.9862589,Cocev Kamen,https://www.google.com/url?sa=i&url=https%3A%2F%2Fmymacedoniablog.wordpress.com%2Fsightseeing%2Fnorth-east-macedonia%2Fkratovo%2Fcocev-kamen%2F&psig=AOvVaw1IH9Y1idNSrgLfb2tChuNY&ust=1703529130362000&source=images&cd=vfe&opi=89978449&ved=0CBIQjRxqFwoTCLi47tnaqIMDFQAAAAAdAAAAABAH
41.4184594,22.0181317,Memorial house - Strasho Pindjur,https://www.google.com/url?sa=i&url=https%3A%2F%2Fmk.wikipedia.org%2Fwiki%2F%25D0%25A1%25D0%25BF%25D0%25BE%25D0%25BC%25D0%25B5%25D0%25BD-%25D0%25BA%25D1%2583%25D1%259C%25D0%25B0_%25D0%25BD%25D0%25B0_%25D0%25A1%25D1%2582%25D1%2580%25D0%25B0%25D1%2588%25D0%25BE_%25D0%259F%25D0%25B8%25D0%25BD%25D1%259F%25D1%2583%25D1%2580&psig=AOvVaw1Ee1N9Ih5PskwbMSaZg_U2&ust=1703529155060000&source=images&cd=vfe&opi=89978449&ved=0CBIQjRxqFwoTCIiZoeraqIMDFQAAAAAdAAAAABAD
41.1126936,20.7995376,Monument St. Clement Ohridski,https://www.google.com/url?sa=i&url=https%3A%2F%2Fwww.tripadvisor.com%2FAttraction_Review-g303864-d9455759-Reviews-Monument_St_Kliment_Ohridski-Ohrid_Southwestern_Region.html&psig=AOvVaw2INHB4qr_RqoTQB_D_rQB-&ust=1703529182967000&source=images&cd=vfe&opi=89978449&ved=0CBIQjRxqFwoTCLDT4__aqIMDFQAAAAAdAAAAABAD
41.1120476,20.799994,Monuments of Saints Cyril and Methodius,https://www.google.com/url?sa=i&url=https%3A%2F%2Fwww.tripadvisor.com%2FAttraction_Review-g303864-d552706-Reviews-Monuments_of_Saints_Cyril_and_Methodius-Ohrid_Southwestern_Region.html&psig=AOvVaw0KOKa3n4A0IPeIkQBlmtOY&ust=1703529225629000&source=images&cd=vfe&opi=89978449&ved=0CBIQjRxqFwoTCLDsn4XbqIMDFQAAAAAdAAAAABAD
41.1122955,20.7990226,Monument to St. Naum of Ohrid,https://www.google.com/url?sa=i&url=https%3A%2F%2Fwww.tripadvisor.com%2FLocationPhotoDirectLink-g303864-i359551235-Ohrid_Southwestern_Region.html&psig=AOvVaw0FZohjtQu-RJded3iYDDDC&ust=1703529236732000&source=images&cd=vfe&opi=89978449&ved=0CBIQjRxqFwoTCIi4h4vbqIMDFQAAAAAdAAAAABAD
41.1124606,20.7977703,Lower Gate,https://www.google.com/url?sa=i&url=https%3A%2F%2Fwww.dreamstime.com%2Fohrid-north-macedonia-lower-gate-square-fortification-walls-side-old-town-unesco-world-heritage-site-image217049770&psig=AOvVaw0qI45cIDTm6NvhpK2gI_di&ust=1703529248003000&source=images&cd=vfe&opi=89978449&ved=0CBIQjRxqFwoTCKCvopDbqIMDFQAAAAAdAAAAABAD
42.0853984,21.9627449,Macka kamen,https://www.google.com/url?sa=i&url=https%3A%2F%2Fmaskimagazin.faktor.mk%2Fgjavolskoto-oko-od-makedonija-edinstvena-struktura-na-svetot%3Fdesktop%3Dtrue&psig=AOvVaw2C5tsFFYD87hFKCswIs0r8&ust=1703529412249000&source=images&cd=vfe&opi=89978449&ved=0CBIQjRxqFwoTCKDI8eLbqIMDFQAAAAAdAAAAABAD
41.9644772,21.4936632,Saints Peter and Paul the Apostles Church,https://www.google.com/url?sa=i&url=http%3A%2F%2Fwww.fidanoski.ca%2FMacedonia%2FKicevo%2FSvetiPetariPavle.htm&psig=AOvVaw1CdacYC9wEgOS4frcfsvyk&ust=1703529433539000&source=images&cd=vfe&opi=89978449&ved=0CBIQjRxqFwoTCKipnerbqIMDFQAAAAAdAAAAABAD
41.116488,20.800119,Zeynel Abidin Pasha Mosque,https://www.google.com/url?sa=i&url=https%3A%2F%2Fwww.dreamstime.com%2Fohrid-north-macedonia-old-turkish-zeynel-abidin-pasha-mosque-unesco-image217075151&psig=AOvVaw2Pat6AWKE6wRzOOYAyqm-J&ust=1703529449211000&source=images&cd=vfe&opi=89978449&ved=0CBIQjRxqFwoTCLCLnPLbqIMDFQAAAAAdAAAAABAD
41.4748537,22.5651714,Monastery of the Mother of God Eleusa,https://www.google.com/url?sa=i&url=https%3A%2F%2Fwww.myguidemacedonia.com%2Fthings-to-do%2Fmonastery-of-holy-mother-of-god-eleusa---veljusa&psig=AOvVaw3MaxP2kGaBOeu99OzZZibA&ust=1703529465740000&source=images&cd=vfe&opi=89978449&ved=0CBIQjRxqFwoTCPCpxITcqIMDFQAAAAAdAAAAABAD
41.4505759,22.5902413,St. Leontius Monastery,https://www.google.com/url?sa=i&url=https%3A%2F%2Fwww.myguidemacedonia.com%2Fthings-to-do%2Fmonastery-of-st-leontius---vodocha&psig=AOvVaw2k-703bHOX4JNATTChdSmd&ust=1703529504014000&source=images&cd=vfe&opi=89978449&ved=0CBIQjRxqFwoTCKDkw4rcqIMDFQAAAAAdAAAAABAD
41.3341123,21.554646,Cript,https://www.google.com/url?sa=i&url=https%3A%2F%2Fwww.spomenikdatabase.org%2Fprilep&psig=AOvVaw0ENrmRzcJ_DhjWSV13o1qU&ust=1703529724446000&source=images&cd=vfe&opi=89978449&ved=0CBIQjRxqFwoTCLiglvPcqIMDFQAAAAAdAAAAABAD
41.345456,21.5548417,Sly Peter,https://www.google.com/url?sa=i&url=https%3A%2F%2Fmacedoniapostcards.com%2Fitar-pejo-monument%2F&psig=AOvVaw04qVbfEWz43oYoCaw8cpgB&ust=1703529746989000&source=images&cd=vfe&opi=89978449&ved=0CBIQjRxqFwoTCMCv9__cqIMDFQAAAAAdAAAAABAD
41.96769,22.80766,Sv. Jovan Krstitel,https://www.google.com/url?sa=i&url=https%3A%2F%2Fmk.wikipedia.org%2Fwiki%2F%25D0%25A6%25D1%2580%25D0%25BA%25D0%25B2%25D0%25B0_%25E2%2580%259E%25D0%25A1%25D0%25B2._%25D0%2588%25D0%25BE%25D0%25B2%25D0%25B0%25D0%25BD_%25D0%259A%25D1%2580%25D1%2581%25D1%2582%25D0%25B8%25D1%2582%25D0%25B5%25D0%25BB%25E2%2580%259C_-_%25D0%25A1%25D1%2582%25D0%25B0%25D1%2580%25D0%25BE%25D0%25B5%25D1%2586&psig=AOvVaw2F6rZyQ3DH8PZ_8KtvY7TR&ust=1703529893474000&source=images&cd=vfe&opi=89978449&ved=0CBIQjRxqFwoTCJiR68TdqIMDFQAAAAAdAAAAABAD
41.9963577,21.4323793,Goce Delchev Memorial,https://www.google.com/url?sa=i&url=https%3A%2F%2Fequestrianstatue.org%2Fdelchev-goce%2F&psig=AOvVaw2X6SNYlFLj7ZcvIxIxy-6G&ust=1703529932661000&source=images&cd=vfe&opi=89978449&ved=0CBIQjRxqFwoTCMig_tbdqIMDFQAAAAAdAAAAABAD
41.9668611,22.7768724,Goce Delchev Monument,https://www.google.com/url?sa=i&url=https%3A%2F%2Fcommons.wikimedia.org%2Fwiki%2FFile%3A%25D0%25A1%25D1%2582%25D1%2580%25D1%2583%25D0%25BC%25D0%25B8%25D1%2586%25D0%25B0_-_%25D0%25A0._%25D0%259C%25D0%25B0%25D0%25BA%25D0%25B5%25D0%25B4%25D0%25BE%25D0%25BD%25D0%25B8%25D1%2598%25D0%25B0_%2C_Strumica_-_R._of_Macedonia_GOCE_DELCEV-DELCHEV_MONUMENT_%25D0%25A1%25D0%259F%25D0%259E%25D0%259C%25D0%2595%25D0%259D%25D0%2598%25D0%259A_%25D0%259D%25D0%2590_%25D0%2593%25D0%259E%25D0%25A6%25D0%2595_%25D0%2594%25D0%2595%25D0%259B%25D0%25A7%25D0%2595%25D0%2592_SPOMENIK_NA_GOCE_DELCEV_VO_STRUMICA_-_panoramio.jpg&psig=AOvVaw0u5qhRdedvrGPOojOVPRdx&ust=1703529964734000&source=images&cd=vfe&opi=89978449&ved=0CBIQjRxqFwoTCODw--ndqIMDFQAAAAAdAAAAABAD
41.965457,22.7692342,Sultan Fatih Mehmet II - Mosque,https://www.google.com/url?sa=i&url=https%3A%2F%2Fwww.islamicarchitecturalheritage.com%2Flistings%2Fsultan-mehmet-ii-al-fatih-mosque&psig=AOvVaw2OS_5eAoNRYRoTtMnsdrIa&ust=1703529990055000&source=images&cd=vfe&opi=89978449&ved=0CBIQjRxqFwoTCOiWiPTdqIMDFQAAAAAdAAAAABAD
41.9663618,22.7721162,KUD Goce Delchev,https://www.google.com/url?sa=i&url=https%3A%2F%2Fwww.delcevo.gov.mk%2Fen%2Fnovosti%2F22782&psig=AOvVaw2fIyuLOeFIbapdFD-RKoz7&ust=1703530049110000&source=images&cd=vfe&opi=89978449&ved=0CBIQjRxqFwoTCPDbqo_eqIMDFQAAAAAdAAAAABAD
41.9664768,22.7729986,City Museum,https://www.google.com/url?sa=i&url=https%3A%2F%2Fwww.delcevo.gov.mk%2Fen%2Fgradski-muzej&psig=AOvVaw1dXnZCkoa5z5onlgnJZHHB&ust=1703530125049000&source=images&cd=vfe&opi=89978449&ved=0CBIQjRxqFwoTCIjCxLLeqIMDFQAAAAAdAAAAABAM
41.9641339,22.7747523,St. Naum,https://www.google.com/url?sa=i&url=https%3A%2F%2Fen.wikipedia.org%2Fwiki%2FMonastery_of_Saint_Naum&psig=AOvVaw3hk6WXcOUMC47og-4G4w_C&ust=1703530145934000&source=images&cd=vfe&opi=89978449&ved=0CBIQjRxqFwoTCKjvwr_eqIMDFQAAAAAdAAAAABAD
41.9669918,22.7779676,St. Kliment Ohridski,https://www.google.com/url?sa=i&url=https%3A%2F%2Fjourneymacedonia.com%2Fchurchesmonasteries%2Fskopje-eparchy%2Fskopje-st-clement-ohrid-soborna-crkva%2F&psig=AOvVaw0Tyk3K9e3dNgugwwgOH2zD&ust=1703530165505000&source=images&cd=vfe&opi=89978449&ved=0CBIQjRxqFwoTCKjGkcbeqIMDFQAAAAAdAAAAABAM
42.0238942,22.7229364,Sv. Petka (from 14th Century),https://www.google.com/url?sa=i&url=https%3A%2F%2Fwww.shutterstock.com%2Fsearch%2Fsv-petka&psig=AOvVaw0iDnvvSCfNXsSFpgG62_JC&ust=1703530277537000&source=images&cd=vfe&opi=89978449&ved=0CBIQjRxqFwoTCJC3tYLfqIMDFQAAAAAdAAAAABAD
41.9414253,22.7930159,St. Georgi,https://www.google.com/url?sa=i&url=https%3A%2F%2Fen.wikipedia.org%2Fwiki%2FChurch_of_St._George%2C_Staro_Nagori%25C4%258Dane&psig=AOvVaw3t_X3EFxdCwKQ-FBvdyLdf&ust=1703530309930000&source=images&cd=vfe&opi=89978449&ved=0CBIQjRxqFwoTCJCMz4zfqIMDFQAAAAAdAAAAABAD
41.9010303,22.7303965,St. Pantelejmon,https://www.google.com/url?sa=i&url=https%3A%2F%2Fen.wikipedia.org%2Fwiki%2FChurch_of_Saint_Panteleimon%2C_Gorno_Nerezi&psig=AOvVaw3lClHcdNXD1XSf6JhORy_Z&ust=1703530325956000&source=images&cd=vfe&opi=89978449&ved=0CBIQjRxqFwoTCPj7xJLfqIMDFQAAAAAdAAAAABAD
41.9682709,21.4313461,Markovi Kuli,https://www.google.com/url?sa=i&url=https%3A%2F%2Fwww.facebook.com%2Fnaitmacedonia%2Fphotos%2Fa.886637144811907%2F1810552872420325%2F%3Ftype%3D3&psig=AOvVaw3-Vf0PJ9MecO2B2izrRjAZ&ust=1703530338092000&source=images&cd=vfe&opi=89978449&ved=0CBIQjRxqFwoTCJiqq5nfqIMDFQAAAAAdAAAAABAD
41.812649,21.6647825,Monastery of Saint Ellyah,https://www.google.com/url?sa=i&url=https%3A%2F%2Fwww.visionsoftravel.org%2Fsaint-pantheleimon-clement-monastery-ohrid-macedonia%2F&psig=AOvVaw0i9ruf7LdlUoo4cAa-7BPZ&ust=1703530352311000&source=images&cd=vfe&opi=89978449&ved=0CBIQjRxqFwoTCNDI6p_fqIMDFQAAAAAdAAAAABAD
42.0758863,22.1831257,St. John the Baptist,https://www.google.com/url?sa=i&url=https%3A%2F%2Fcommons.wikimedia.org%2Fwiki%2FFile%3A12%2C_%25D0%25A1%25D0%25B2.%25D0%2588%25D0%25BE%25D0%25B2%25D0%25B0%25D0%25BD_%25D0%2591%25D0%25B8%25D0%25B3%25D0%25BE%25D1%2580%25D1%2581%25D0%25BA%25D0%25B8_%25D0%25BC%25D0%25B0%25D0%25BD%25D0%25B0%25D1%2581%25D1%2582%25D0%25B8%25D1%2580%2C_St.John_the_Baptist_Monastery%2C_Macedonia.JPG&psig=AOvVaw2dHrL5HRPdCehno8iPxDdB&ust=1703530367573000&source=images&cd=vfe&opi=89978449&ved=0CBIQjRxqFwoTCOCaq6bfqIMDFQAAAAAdAAAAABAI
41.9977079,21.4339766,Saints Cyril and Methodius,https://www.google.com/url?sa=i&url=https%3A%2F%2Fmacedoniatimes.news%2Fsaints-cyril-methodius-slavonic-apostles%2F&psig=AOvVaw0mrku510pJDqzVnEqT0PHm&ust=1703530421247000&source=images&cd=vfe&opi=89978449&ved=0CBIQjRxqFwoTCLCv_MLfqIMDFQAAAAAdAAAAABAD
41.9975624,21.4341509,Saints Clement of Ohrid and Naum,https://www.google.com/url?sa=i&url=https%3A%2F%2Fskopje2014.prizma.birn.eu.com%2Fen%2FSt--Clement-of-Ohrid&psig=AOvVaw3LRQRijSC5HwXsCfgC_D4-&ust=1703530464676000&source=images&cd=vfe&opi=89978449&ved=0CBIQjRxqFwoTCKinktTfqIMDFQAAAAAdAAAAABAD
41.0790945,20.8235095,Presveta Bogorodica,https://www.google.com/url?sa=i&url=https%3A%2F%2Fwww.facebook.com%2FNagoricani1%2Fposts%2F%25D1%2586%25D1%2580%25D0%25BA%25D0%25B2%25D0%25B0-%25D1%2583%25D1%2581%25D0%25BF%25D0%25B5%25D0%25BD%25D0%25B8%25D0%25B5-%25D0%25BD%25D0%25B0-%25D0%25BF%25D1%2580%25D0%25B5%25D1%2581%25D0%25B2%25D0%25B5%25D1%2582%25D0%25B0-%25D0%25B1%25D0%25BE%25D0%25B3%25D0%25BE%25D1%2580%25D0%25BE%25D0%25B4%25D0%25B8%25D1%2586%25D0%25B0-%25D0%25BC%25D0%25B0%25D0%25BA%25D0%25B5%25D0%25B4%25D0%25BE%25D0%25BD%25D1%2581%25D0%25BA%25D0%25B0-%25D0%25BA%25D0%25B0%25D0%25BC%25D0%25B5%25D0%25BD%25D0%25B8%25D1%2586%25D0%25B0-crkva-uspenie-na-presve%2F531587467526061%2F&psig=AOvVaw366zKeyZm3U2cHPvdkWPpJ&ust=1703530477050000&source=images&cd=vfe&opi=89978449&ved=0CBIQjRxqFwoTCMiKjtzfqIMDFQAAAAAdAAAAABAD
41.9953917,21.4313414,Tsar Samuel,https://www.google.com/url?sa=i&url=https%3A%2F%2Fwww.alamy.com%2Fking-samuel-or-tsar-samuil-monument-in-the-centre-of-macedonia-square-in-skopje-city-north-macedonia-image358703896.html&psig=AOvVaw329NxCMKOW3Iz4PVdB91Jt&ust=1703530513918000&source=images&cd=vfe&opi=89978449&ved=0CBIQjRxqFwoTCND5xuvfqIMDFQAAAAAdAAAAABAD
41.9968799,21.4323054,Justinian I,https://www.google.com/url?sa=i&url=https%3A%2F%2Fskopje2014.prizma.birn.eu.com%2Fen%2FJustinian-I&psig=AOvVaw3Qhyqwq2DmESjVxW9tzpWu&ust=1703530528230000&source=images&cd=vfe&opi=89978449&ved=0CBIQjRxqFwoTCOCXwvLfqIMDFQAAAAAdAAAAABAH
41.9979046,21.4344182,Olympias,https://www.google.com/url?sa=i&url=https%3A%2F%2Fwww.alamy.com%2Folympias-monument-and-fountain-skopje-macedonia-image228083432.html&psig=AOvVaw3rfsyWEJkP_GGvCGU7E6Wf&ust=1703530540464000&source=images&cd=vfe&opi=89978449&ved=0CBIQjRxqFwoTCOj5wPrfqIMDFQAAAAAdAAAAABAI
41.993303,21.4337226,Prometheus,https://www.google.com/url?sa=i&url=https%3A%2F%2Fwww.alamy.com%2Fskopje-north-macedonia-august-9-2019-prometheus-and-fallen-heroes-for-macedonia-monuments-in-skopje-north-macedonia-image559632242.html&psig=AOvVaw1s2LlAcMRac1tXpYr6C3Kh&ust=1703530561794000&source=images&cd=vfe&opi=89978449&ved=0CBIQjRxqFwoTCIj1sYPgqIMDFQAAAAAdAAAAABAD
41.9936684,21.4317487,Bey's Tower,https://www.google.com/url?sa=i&url=https%3A%2F%2Ftropter.com%2Fen%2Fnorth-macedonia%2Fskopje%2Fbeys-tower&psig=AOvVaw2Z1Tw5PngWVFnSwZ8VRa_E&ust=1703530577287000&source=images&cd=vfe&opi=89978449&ved=0CBIQjRxqFwoTCKDL0YrgqIMDFQAAAAAdAAAAABAD
41.3661079,21.6749495,Borka Taleski / Lazo Filipovski,https://www.google.com/url?sa=i&url=https%3A%2F%2Fwww.publikum.mk%2F79-godini-od-smrtta-na-narodnite-heroi-borka-taleski-i-lazo-filipovski-lavski%2F&psig=AOvVaw3C7GdNvGViy7xeJqei4J-t&ust=1703530602467000&source=images&cd=vfe&opi=89978449&ved=0CBIQjRxqFwoTCKinw5fgqIMDFQAAAAAdAAAAABAD
41.1083525,21.0102717,St.Ilija,https://www.google.com/url?sa=i&url=https%3A%2F%2Ftravel2macedonia.com%2Ftourist-attraction%2Fsaint-ilija-church-dojran&psig=AOvVaw1ZsLy4NvUBATw7FMsgSIQx&ust=1703530619376000&source=images&cd=vfe&opi=89978449&ved=0CBIQjRxqFwoTCIC9uZ7gqIMDFQAAAAAdAAAAABAD
42.000853,21.4375046,Murat Pasha Mosque,https://www.google.com/url?sa=i&url=https%3A%2F%2Fstock.adobe.com%2Fimages%2Fmurat-pasha-mosque-located-in-the-old-bazaar-of-skopje-macedonia%2F126277162&psig=AOvVaw0hR5U8o9Wfp9aJ2xBJIZAb&ust=1703530633135000&source=images&cd=vfe&opi=89978449&ved=0CBIQjRxqFwoTCNi7iqbgqIMDFQAAAAAdAAAAABAD
41.9949279,21.4108745,Yuri Gagarin Monument,https://www.google.com/url?sa=i&url=https%3A%2F%2Fmeta.mk%2Fen%2Frussia-donates-monuments-throughout-skopje-and-determines-what-inscriptions-they-will-carry%2F&psig=AOvVaw2uEy7nrWfN54BDZIsioZJL&ust=1703530662176000&source=images&cd=vfe&opi=89978449&ved=0CBIQjRxqFwoTCOiA57LgqIMDFQAAAAAdAAAAABAD
42.0016804,21.4283664,Vera Jocik,https://www.google.com/url?sa=i&url=https%3A%2F%2Fen.wikipedia.org%2Fwiki%2FVera_Joci%25C4%2587&psig=AOvVaw0Dj-XA-qYI1Fptc5i6J4la&ust=1703530673668000&source=images&cd=vfe&opi=89978449&ved=0CBIQjRxqFwoTCOD4o7fgqIMDFQAAAAAdAAAAABAD
41.1291432,20.8400056,Saint Petka Monastery,https://www.google.com/url?sa=i&url=https%3A%2F%2Fbitola.info%2Fst-petka-monastery-in-village-capari-bitola-municipality%2F&psig=AOvVaw0xLQdZciwVdCIpxur7LhLX&ust=1703530682057000&source=images&cd=vfe&opi=89978449&ved=0CBIQjRxqFwoTCPjmxLvgqIMDFQAAAAAdAAAAABAD
41.3455416,21.5532375,Marko Mrnjavchevikj,https://www.google.com/url?sa=i&url=https%3A%2F%2Fen.wikipedia.org%2Fwiki%2FPrince_Marko&psig=AOvVaw0zghGmYeQtTP1cptZDPb7E&ust=1703530714994000&source=images&cd=vfe&opi=89978449&ved=0CBIQjRxqFwoTCIDR0svgqIMDFQAAAAAdAAAAABAD
41.5130946,20.9663459,Kita Castle,https://www.google.com/url?sa=i&url=https%3A%2F%2Fwww.pinterest.pt%2Fpin%2F546483736016078306%2F%3Famp_client_id%3DCLIENT_ID%2528_%2529%26mweb_unauth_id%3D%26from_amp_pin_page%3Dtrue&psig=AOvVaw2tK9d5i_ABT3tYxE-7PtJq&ust=1703530754248000&source=images&cd=vfe&opi=89978449&ved=0CBIQjRxqFwoTCOChuePgqIMDFQAAAAAdAAAAABAQ
40.9142772,20.9879202,Saint Nicholas Church,https://www.google.com/url?sa=i&url=https%3A%2F%2Fjourneymacedonia.com%2Fchurchesmonasteries%2Fmavrovo-st-nicholas-nikola%2F&psig=AOvVaw3J9cP6bTy6hdIQNJ8iG4Oo&ust=1703530792946000&source=images&cd=vfe&opi=89978449&ved=0CBIQjRxqFwoTCJC-nvXgqIMDFQAAAAAdAAAAABAX
42.0048505,21.4368762,Haji Balaban Masjid,https://www.google.com/url?sa=i&url=http%3A%2F%2Fmk.near-place.com%2Fhaji-balaban-masjid-albert-stanikj-skopje-1000&psig=AOvVaw2ZTKLgvgPdKi8zLWtr6yUa&ust=1703530840335000&source=images&cd=vfe&opi=89978449&ved=0CBIQjRxqFwoTCLCM_YjhqIMDFQAAAAAdAAAAABAD
42.0769461,22.1823517,Emin Bey Tower,https://www.google.com/url?sa=i&url=https%3A%2F%2Fmymacedoniablog.wordpress.com%2Fsightseeing%2Fnorth-east-macedonia%2Fkratovo%2F&psig=AOvVaw3Fetr5T1u6kWwGh23B2Os5&ust=1703530877428000&source=images&cd=vfe&opi=89978449&ved=0CBIQjRxqFwoTCJj50pnhqIMDFQAAAAAdAAAAABAD
42.0768838,22.1826261,Krste's Tower,https://www.google.com/url?sa=i&url=http%3A%2F%2Fwikimapia.org%2F32928279%2FKrste-s-Tower&psig=AOvVaw2wQx6MsNXj2gIdW6xIb7eW&ust=1703530889792000&source=images&cd=vfe&opi=89978449&ved=0CBIQjRxqFwoTCKjA56HhqIMDFQAAAAAdAAAAABAD
41.1949939,22.6878453,World War I Salonica Front memorial,https://www.google.com/url?sa=i&url=https%3A%2F%2Fexperience-macedonia.com%2Fww1-macedonian-front-line-tour%2F&psig=AOvVaw1Ohc-PRuSk7t_a-MAQ82Dn&ust=1703530907421000&source=images&cd=vfe&opi=89978449&ved=0CBIQjRxqFwoTCIDx1KjhqIMDFQAAAAAdAAAAABAD
42.0768628,22.1822635,Hadji Kostov Tower,https://www.google.com/url?sa=i&url=https%3A%2F%2Fwww.alamy.com%2Fhadji-kostova-tower-kratovo-macedonia-fyrom-republic-of-northern-macedonia-image395458208.html&psig=AOvVaw34qzApvPFN2KqyWavLNsEV&ust=1703531066258000&source=images&cd=vfe&opi=89978449&ved=0CBIQjRxqFwoTCODhu_ThqIMDFQAAAAAdAAAAABAD
42.0792053,22.1818109,Clock Tower,https://www.google.com/url?sa=i&url=https%3A%2F%2Fwww.dreamstime.com%2Fstock-photo-clock-tower-prilep-macedonia-image61065900&psig=AOvVaw2wH9MW7Tle_Rdw_c9Y5ZsZ&ust=1703531081278000&source=images&cd=vfe&opi=89978449&ved=0CBIQjRxqFwoTCLiC0v3hqIMDFQAAAAAdAAAAABAD
42.0788289,22.1809805,Zlatkovich Tower,https://www.google.com/url?sa=i&url=https%3A%2F%2Fwww.alamy.com%2Fzlatkovicheva-or-zlatkos-tower-kratovo-macedonia-fyrom-republic-of-northern-macedonia-image395458207.html&psig=AOvVaw12cIft7JP-1Zri2Q4JKhOa&ust=1703531125763000&source=images&cd=vfe&opi=89978449&ved=0CBIQjRxqFwoTCKCVv5DiqIMDFQAAAAAdAAAAABAD
42.0786957,22.1794714,Simikj Tower,https://www.google.com/url?sa=i&url=https%3A%2F%2Fwww.alamy.com%2Fsimikjeva-simic-or-simikjs-defensive-tower-kratovo-macedonia-fyrom-republic-of-northern-macedonia-image395458182.html&psig=AOvVaw2yamVIkJm6mK6CRy34XcUy&ust=1703531167183000&source=images&cd=vfe&opi=89978449&ved=0CBIQjRxqFwoTCLi7wabiqIMDFQAAAAAdAAAAABAD
41.1142035,20.7958058,Grigor Prlicev grave,https://www.google.com/url?sa=i&url=https%3A%2F%2Fmymacedoniablog.wordpress.com%2Fsightseeing%2Fohrid-and-surroundings%2Fohrid%2Fmuseums-statues-and-monuments%2F&psig=AOvVaw29QEv7z7zX9ioE_Ehx_-5p&ust=1703531184680000&source=images&cd=vfe&opi=89978449&ved=0CBIQjRxqFwoTCNizvKziqIMDFQAAAAAdAAAAABAD
41.006774,21.3415263,St. Trinity,https://www.google.com/url?sa=i&url=https%3A%2F%2Fwww.myguidemacedonia.com%2Fthings-to-do%2Fchurch-of-the-holy-trinity&psig=AOvVaw30BC1FXOQ3VYamkRV1JmWH&ust=1703531200222000&source=images&cd=vfe&opi=89978449&ved=0CBIQjRxqFwoTCPjVprPiqIMDFQAAAAAdAAAAABAD
41.1827523,20.7990502,Church of St. Elijah,https://www.google.com/url?sa=i&url=http%3A%2F%2Fjourneymacedonia.com%2Fchurchesmonasteries%2Fstrumica-eparchy%2Fberovo-st-elijah-the-prophet%2F&psig=AOvVaw0q6WtJZ1uhAPMmOiKVyPhm&ust=1703531223671000&source=images&cd=vfe&opi=89978449&ved=0CBIQjRxqFwoTCJDk1L3iqIMDFQAAAAAdAAAAABAL
41.0240503,21.0506131,Ethnographic museum,https://www.google.com/url?sa=i&url=https%3A%2F%2Fwhichmuseum.com%2Fmuseum%2Ffolklife-and-ethnological-museum-of-macedonia-thrace-thessaloniki-7219&psig=AOvVaw2VA9or9XhG_Pr9UvKxX1DH&ust=1703531278892000&source=images&cd=vfe&opi=89978449&ved=0CBIQjRxqFwoTCLCGgNniqIMDFQAAAAAdAAAAABAD
41.9963717,21.4339472,The Bridge of Civilizations in Macedonia,https://www.google.com/url?sa=i&url=https%3A%2F%2Fwww.tripadvisor.com%2FShowUserReviews-g295110-d5232719-r538806317-Skopje_Eye_Bridge-Skopje_Skopje_Region.html&psig=AOvVaw2U6vpJoNL9shu2ZDaHdmyr&ust=1703531291293000&source=images&cd=vfe&opi=89978449&ved=0CBIQjRxqFwoTCPCwyN_iqIMDFQAAAAAdAAAAABAD
41.0239386,20.8255665,chapel,https://www.google.com/url?sa=i&url=https%3A%2F%2Fmymacedoniablog.wordpress.com%2Fhiking%2Fleskoec-in-galicica-national-park-16-km%2F&psig=AOvVaw1Om7F7tJst9WLEXxgAGlOW&ust=1703531385304000&source=images&cd=vfe&opi=89978449&ved=0CBIQjRxqFwoTCIj9n43jqIMDFQAAAAAdAAAAABAD
41.9952759,21.4319995,Mother Teresa Old House Place,https://www.google.com/url?sa=i&url=https%3A%2F%2Fwww.itinari.com%2Flocation%2Fthe-mother-teresa-memorial-house&psig=AOvVaw0374BzXk8cjMdvV8uPZKLt&ust=1703531402652000&source=images&cd=vfe&opi=89978449&ved=0CBIQjRxqFwoTCJDkxpXjqIMDFQAAAAAdAAAAABAD
41.1057278,20.8078335,Aard den Dolaard,https://www.google.com/url?sa=i&url=https%3A%2F%2Fen.wikipedia.org%2Fwiki%2FA._den_Doolaard&psig=AOvVaw0kJUpUj8oP42op_qlw0xGC&ust=1703531417145000&source=images&cd=vfe&opi=89978449&ved=0CBIQjRxqFwoTCJi-p5rjqIMDFQAAAAAdAAAAABAD
41.3390523,22.2545875,St. George,https://www.google.com/url?sa=i&url=https%3A%2F%2Fjourneymacedonia.com%2Fchurchesmonasteries%2Fstaro-nagorichane-st-george%2F&psig=AOvVaw1qFz88n05hNtyY834DlnAK&ust=1703531495866000&source=images&cd=vfe&opi=89978449&ved=0CBIQjRxqFwoTCNi59b_jqIMDFQAAAAAdAAAAABAD
41.984822,22.5905049,Kalata,https://www.google.com/url?sa=i&url=https%3A%2F%2Fmk.wikipedia.org%2Fwiki%2F%25D0%259A%25D0%25B0%25D0%25BB%25D0%25B0%25D1%2582%25D0%25B0&psig=AOvVaw1sFyn9UtmX49NuTbl4wOYL&ust=1703531668041000&source=images&cd=vfe&opi=89978449&ved=0CBIQjRxqFwoTCIjd35TkqIMDFQAAAAAdAAAAABAI
40.9142772,20.9879202,Saint Nicholas Church,https://www.google.com/url?sa=i&url=https%3A%2F%2Fwww.stnicholascenter.org%2Fgazetteer%2F2925&psig=AOvVaw0PAob-0P6yxUk6OuuWyi7N&ust=1703531723771000&source=images&cd=vfe&opi=89978449&ved=0CBIQjRxqFwoTCPDRvq_kqIMDFQAAAAAdAAAAABAD
40.93898,20.91142,Saint Cyril and Methodius Church,https://www.google.com/url?sa=i&url=https%3A%2F%2Fen.wikipedia.org%2Fwiki%2FSaint_Cyril_and_Methodius_Church_%2528Petralinci%2529&psig=AOvVaw0ShuQ-7hrflylsB5RUDaor&ust=1703531740955000&source=images&cd=vfe&opi=89978449&ved=0CBIQjRxqFwoTCJCPo7XkqIMDFQAAAAAdAAAAABAD
41.5263923,20.5259249,cami,https://www.google.com/url?sa=i&url=https%3A%2F%2Fwww.dreamstime.com%2Fexterior-view-to-spotted-mosque-alaca-cami-kalkandelen-aka-painted-tetovo-north-macedonia-image142383965&psig=AOvVaw3eSRh7cC3-EcUx8xA8Yii7&ust=1703531756808000&source=images&cd=vfe&opi=89978449&ved=0CBIQjRxqFwoTCKDM57zkqIMDFQAAAAAdAAAAABAD
41.6952366,21.628172,Banjica Fortress,https://www.google.com/url?sa=i&url=https%3A%2F%2Fen.wikipedia.org%2Fwiki%2FSamuel%2527s_Fortress%2C_Ohrid&psig=AOvVaw2Mo9JvlsvQLxUkUvpzIAuL&ust=1703531768864000&source=images&cd=vfe&opi=89978449&ved=0CBIQjRxqFwoTCJidkMzkqIMDFQAAAAAdAAAAABAD
41.2395882,20.5896518,St Nicholas Church,https://www.google.com/url?sa=i&url=https%3A%2F%2Fmacedoniapostcards.com%2Fst-nikola-in-village-vevcani%2F&psig=AOvVaw2krBP-ex8eX0HHNQbur4W6&ust=1703531819980000&source=images&cd=vfe&opi=89978449&ved=0CBIQjRxqFwoTCNiwm9vkqIMDFQAAAAAdAAAAABAD
41.4373198,22.6353267,United Methodist Church,https://www.google.com/url?sa=i&url=https%3A%2F%2Fwww.facebook.com%2Fumc.macedonia%2F&psig=AOvVaw2MFmsD_nMzsMojQZfjeUTP&ust=1703531833431000&source=images&cd=vfe&opi=89978449&ved=0CBIQjRxqFwoTCKjr0eDkqIMDFQAAAAAdAAAAABAD
41.2754595,21.3684104,Ljube Grujoski,https://www.google.com/url?sa=i&url=https%3A%2F%2Fmk.m.wikipedia.org%2Fwiki%2F%25D0%259F%25D0%25BE%25D0%25B4%25D0%25B0%25D1%2582%25D0%25BE%25D1%2582%25D0%25B5%25D0%25BA%25D0%25B0%3A%25D0%25A1%25D0%25BF%25D0%25BE%25D0%25BC%25D0%25B5%25D0%25BD%25D0%25B8%25D0%25BA_%25D0%25BD%25D0%25B0_%25D0%2589%25D1%2583%25D0%25B1%25D0%25B5_%25D0%2593%25D1%2580%25D1%2583%25D1%2598%25D0%25BE%25D1%2581%25D0%25BA%25D0%25B8_%25D0%25B2%25D0%25BE_%25D0%259F%25D0%25B0%25D1%2588%25D0%25B8%25D0%25BD%25D0%25BE_%25D0%25A0%25D1%2583%25D0%25B2%25D1%2586%25D0%25B8.jpg&psig=AOvVaw2_S_R7BAn8xqmgm1Ze2WQQ&ust=1703531843203000&source=images&cd=vfe&opi=89978449&ved=0CBIQjRxqFwoTCJC4rOXkqIMDFQAAAAAdAAAAABAD
41.9962134,21.4291373,Museum of illusions,https://www.google.com/url?sa=i&url=https%3A%2F%2Fwww.tripadvisor.com%2FAttraction_Review-g295110-d14155915-Reviews-Museum_of_Illusions-Skopje_Skopje_Region.html&psig=AOvVaw0K9VqT5rx39SY5ZQFUl2ew&ust=1703531854616000&source=images&cd=vfe&opi=89978449&ved=0CBIQjRxqFwoTCJCXn-3kqIMDFQAAAAAdAAAAABAD
41.3724643,21.5605466,Masacre of Dabnica,https://www.google.com/url?sa=i&url=https%3A%2F%2Fmk.wikipedia.org%2Fwiki%2F%25D0%259C%25D0%25B0%25D1%2581%25D0%25B0%25D0%25BA%25D1%2580_%25D0%25BA%25D0%25B0%25D1%2598_%25D0%2594%25D0%25B0%25D0%25B1%25D0%25BD%25D0%25B8%25D1%2586%25D0%25B0_%25281942%2529&psig=AOvVaw2_skDKFSy04KcX8weciyJl&ust=1703531905539000&source=images&cd=vfe&opi=89978449&ved=0CBIQjRxqFwoTCPCzn5DlqIMDFQAAAAAdAAAAABAD
41.2064953,21.6536957,Tole Pasha,https://www.google.com/url?sa=i&url=https%3A%2F%2Fmk.wikipedia.org%2Fwiki%2F%25D0%25A2%25D0%25BE%25D0%25BB%25D0%25B5_%25D0%259F%25D0%25B0%25D1%2588%25D0%25B0&psig=AOvVaw3usdXYfZ__sGtORsFdqw_n&ust=1703531953144000&source=images&cd=vfe&opi=89978449&ved=0CBIQjRxqFwoTCOD-zpnlqIMDFQAAAAAdAAAAABAD
41.4014262,22.0284286,Vatasha Massacre,https://www.google.com/url?sa=i&url=https%3A%2F%2Fmk.wikipedia.org%2Fwiki%2F%25D0%259C%25D0%25B0%25D1%2581%25D0%25B0%25D0%25BA%25D1%2580_%25D0%25B2%25D0%25BE_%25D0%2592%25D0%25B0%25D1%2582%25D0%25B0%25D1%2588%25D0%25B0&psig=AOvVaw2FGH2rUTZ3TRw1uGR_fXmW&ust=1703531966103000&source=images&cd=vfe&opi=89978449&ved=0CBIQjRxqFwoTCMC966HlqIMDFQAAAAAdAAAAABAD
41.3428704,21.5583071,Pere Toshev,https://www.google.com/url?sa=i&url=https%3A%2F%2Fcommons.wikimedia.org%2Fwiki%2FFile%3A%25D0%25A1%25D0%25BF%25D0%25BE%25D0%25BC%25D0%25B5%25D0%25BD%25D0%25B8%25D0%25BA_%25D0%25BD%25D0%25B0_%25D0%259F%25D0%25B5%25D1%2580%25D0%25B5_%25D0%25A2%25D0%25BE%25D1%2588%25D0%25B5%25D0%25B2_%25D0%25B2%25D0%25BE_%25D0%259F%25D1%2580%25D0%25B8%25D0%25BB%25D0%25B5%25D0%25BF%2C_%25D0%259C%25D0%25B0%25D0%25BA%25D0%25B5%25D0%25B4%25D0%25BE%25D0%25BD%25D0%25B8%25D1%2598%25D0%25B0.JPG&psig=AOvVaw2yQHxS1z-dym57ZrCflzqj&ust=1703532003416000&source=images&cd=vfe&opi=89978449&ved=0CBIQjRxqFwoTCLDJl7PlqIMDFQAAAAAdAAAAABAD
41.483575,20.9222623,Hristo Uzunov,https://www.google.com/url?sa=i&url=https%3A%2F%2Fwww.alamy.com%2Fskopje-north-macedonia-february-24-2018-hristo-uzunov-monument-in-city-of-skopje-north-macedonia-image330458578.html&psig=AOvVaw3rdZqguWz1_vb_TgozfCuS&ust=1703532016048000&source=images&cd=vfe&opi=89978449&ved=0CBIQjRxqFwoTCLikzrflqIMDFQAAAAAdAAAAABAI
41.1150206,20.7949057,Upper Gate,https://www.google.com/url?sa=i&url=https%3A%2F%2Fpixabay.com%2Fphotos%2Fohrid-north-macedonia-upper-gate-4725960%2F&psig=AOvVaw1Lg_1fkeO2coWmJ_yW6n2l&ust=1703532029969000&source=images&cd=vfe&opi=89978449&ved=0CBIQjRxqFwoTCNjp1r7lqIMDFQAAAAAdAAAAABAD
41.4528994,20.9658462,Battle of Gjurgjica,https://www.google.com/url?sa=i&url=https%3A%2F%2Fnovamakedonija.com.mk%2Fmakedonija%2Frepublika%2F119-godini-od-slavnata-bitka-na-gjurgjejca-i-prva-pobeda-na-ilindencite%2F&psig=AOvVaw0YP4BP2-hikUrc8Exfu7_O&ust=1703532082676000&source=images&cd=vfe&opi=89978449&ved=0CBIQjRxqFwoTCOCbrNnlqIMDFQAAAAAdAAAAABAD
41.8646892,21.942062,Monument of St. Nicholas,https://www.google.com/url?sa=i&url=http%3A%2F%2Fjourneymacedonia.com%2Fchurchesmonasteries%2Fsveti-nikole-st-nicholas%2F&psig=AOvVaw0VwflgUADGHa_b7bclMj2t&ust=1703532121149000&source=images&cd=vfe&opi=89978449&ved=0CBIQjRxqFwoTCPivw-rlqIMDFQAAAAAdAAAAABAD
41.9156602,22.412778,Monument to Nikola Karev,https://www.google.com/url?sa=i&url=https%3A%2F%2Fskopje2014.prizma.birn.eu.com%2Fen%2FNikola-Karev&psig=AOvVaw2wqGHRDUcy6W5HtVWnM4aK&ust=1703532133284000&source=images&cd=vfe&opi=89978449&ved=0CBIQjRxqFwoTCOD2mfHlqIMDFQAAAAAdAAAAABAD
41.42728,21.4538,Holy Salvation,https://www.google.com/url?sa=i&url=https%3A%2F%2Fwww.123rf.com%2Fphoto_104611265_church-of-holy-salvation-in-skopje-macedonia.html&psig=AOvVaw2ECe6o6jFOjUIi5CxKXHjU&ust=1703532147146000&source=images&cd=vfe&opi=89978449&ved=0CBIQjRxqFwoTCPDAs_flqIMDFQAAAAAdAAAAABAD
41.3464944,21.5629735,Kire Gavriloski-Jane / Krume Volnaroski-Kolja,https://www.google.com/url?sa=i&url=https%3A%2F%2Fwww.prilep.gov.mk%2F77-godini-od-smrtta-na-narodnite-heroi-kire-gavriloski-jane-i-krume-volnaroski%2F&psig=AOvVaw1SuOv-GmNP9yeEHjQR_b_R&ust=1703532160467000&source=images&cd=vfe&opi=89978449&ved=0CBIQjRxqFwoTCOiMvYPmqIMDFQAAAAAdAAAAABAD
41.3421058,21.5572532,Alexander The Great Memorial,https://www.google.com/url?sa=i&url=https%3A%2F%2Fequestrianstatue.org%2Falexander-the-great%2F&psig=AOvVaw1TfJvVb4QNqxizOZXpQ8-4&ust=1703532186202000&source=images&cd=vfe&opi=89978449&ved=0CBIQjRxqFwoTCJCOv4rmqIMDFQAAAAAdAAAAABAD
41.3653786,21.2488407,Kica Petreski,https://www.google.com/url?sa=i&url=https%3A%2F%2Fwww.totallylost.eu%2Fspace%2Fmonument-in-kavadarci%2F&psig=AOvVaw2Y994jLZGEn7jINuDqz_mW&ust=1703532307567000&source=images&cd=vfe&opi=89978449&ved=0CBIQjRxqFwoTCMjmosTmqIMDFQAAAAAdAAAAABAD
41.366045,20.6489384,1st Brigade,https://www.google.com/url?sa=i&url=https%3A%2F%2Fmil.mk%2Foperations-command%2F1st-infantry-brigade%2F%3Flang%3Den&psig=AOvVaw3xNb0fUOvHck8Roldgjt2T&ust=1703532330948000&source=images&cd=vfe&opi=89978449&ved=0CBIQjRxqFwoTCPDW9M7mqIMDFQAAAAAdAAAAABAD
41.9998632,21.4292436,Monument to the Liberators of Skopje,https://www.google.com/url?sa=i&url=https%3A%2F%2Fstock.adobe.com%2Fimages%2Fgovernment-building-of-north-macedonia-at-sunset-with-monument-to-the-liberators-of-skopje-in-front%2F293961840&psig=AOvVaw3R9YvwkyyX6FctWxuj2l3Q&ust=1703532342233000&source=images&cd=vfe&opi=89978449&ved=0CBIQjRxqFwoTCJjJgdTmqIMDFQAAAAAdAAAAABAD
41.9005865,21.6105665,Orthodox church,https://www.google.com/url?sa=i&url=https%3A%2F%2Fmk.wikipedia.org%2Fwiki%2F%25D0%25A6%25D1%2580%25D0%25BA%25D0%25B2%25D0%25B0_%25E2%2580%259E%25D0%25A1%25D0%25B2._%25D0%2590%25D1%2582%25D0%25B0%25D0%25BD%25D0%25B0%25D1%2581%25D0%25B8%25D1%2598%25E2%2580%259C_-_%25D0%259E%25D1%2580%25D0%25B5%25D1%2588%25D0%25B0%25D0%25BD%25D0%25B8&psig=AOvVaw2B4CF2lHx_3EgydjiWOf4P&ust=1703532374451000&source=images&cd=vfe&opi=89978449&ved=0CBIQjRxqFwoTCKi-wuTmqIMDFQAAAAAdAAAAABAD
41.0264228,21.2413843,Saint Athanasius,https://www.google.com/url?sa=i&url=https%3A%2F%2Fwww.dreamstime.com%2Fmonastery-church-st-athanasius-lake-ohrid-macedonia-image157595383&psig=AOvVaw3XSB5D1n8en_eTOrCCT5LQ&ust=1703532389872000&source=images&cd=vfe&opi=89978449&ved=0CBIQjRxqFwoTCJjQkOrmqIMDFQAAAAAdAAAAABAD
41.9540687,21.2889878,Sveti Spas,https://www.google.com/url?sa=i&url=https%3A%2F%2Fmk.wikipedia.org%2Fwiki%2F%25D0%25A6%25D1%2580%25D0%25BA%25D0%25B2%25D0%25B0_%25E2%2580%259E%25D0%25A1%25D0%25B2._%25D0%25A1%25D0%25BF%25D0%25B0%25D1%2581%25E2%2580%259C_-_%25D0%25A1%25D0%25BA%25D0%25BE%25D0%25BF%25D1%2598%25D0%25B5&psig=AOvVaw1nblsoVKjOzTTIIZeQcrXk&ust=1703532400083000&source=images&cd=vfe&opi=89978449&ved=0CBIQjRxqFwoTCJi1h_DmqIMDFQAAAAAdAAAAABAD
41.0224151,21.2840092,Saint Dimitrij,https://www.google.com/url?sa=i&url=https%3A%2F%2Fwww.dreamstime.com%2Fmacedonia-prilep-saint-dimitrij-church-city-image116082353&psig=AOvVaw1u56ZJKH4gSKGWxO3dEPb_&ust=1703532411584000&source=images&cd=vfe&opi=89978449&ved=0CBIQjRxqFwoTCKjhrfXmqIMDFQAAAAAdAAAAABAD
41.0274848,21.1120413,Saint Ana,https://www.google.com/url?sa=i&url=https%3A%2F%2Fwww.macedoniancuisine.com%2F2016%2F08%2Fchurch-sveta-ana-stanne-in-village.html&psig=AOvVaw1PLnzdB-f5Y_KuUO8GPhTI&ust=1703532469345000&source=images&cd=vfe&opi=89978449&ved=0CBIQjRxqFwoTCICn1ZDnqIMDFQAAAAAdAAAAABAD
41.0102076,21.250168,St. Paraskeva,https://www.google.com/url?sa=i&url=https%3A%2F%2Fwww.alamy.com%2Fsaint-naum-monastery-of-saint-naum-church-of-st-paraskeva-macedonia-image360343702.html&psig=AOvVaw3QoVBkKVjWxGPzLbWQdse2&ust=1703532480671000&source=images&cd=vfe&opi=89978449&ved=0CBIQjRxqFwoTCLCXw5bnqIMDFQAAAAAdAAAAABAD
41.3390523,22.2545875,St. George,https://www.google.com/url?sa=i&url=https%3A%2F%2Fjourneymacedonia.com%2Fchurchesmonasteries%2Fstaro-nagorichane-st-george%2F&psig=AOvVaw1m3xbgzozwKA_vwy_cPGs3&ust=1703532492814000&source=images&cd=vfe&opi=89978449&ved=0CBIQjRxqFwoTCIi_s53nqIMDFQAAAAAdAAAAABAD
41.9945304,21.4326511,Pavel Shatev Monument,https://www.google.com/url?sa=i&url=https%3A%2F%2Fzk.mk%2Fstatue-of-pavel-shatev%3Flang%3Den&psig=AOvVaw2jqYkf0ll6nos-fjB1sUo2&ust=1703532507124000&source=images&cd=vfe&opi=89978449&ved=0CBIQjRxqFwoTCMi_jKPnqIMDFQAAAAAdAAAAABAD
42.0640097,21.0288552,Gjoko Lazarevski,https://www.google.com/url?sa=i&url=https%3A%2F%2Fmapcarta.com%2FN9080920713&psig=AOvVaw1xq_Vh27RI3BPNwsX6m8Vv&ust=1703532520911000&source=images&cd=vfe&opi=89978449&ved=0CBIQjRxqFwoTCKjH6qnnqIMDFQAAAAAdAAAAABAD
42.0669654,21.0282911,Kiril Pejchinovikj-Tetoec,https://www.google.com/url?sa=i&url=https%3A%2F%2Fmakedonija.name%2Fculture%2Fkiril-pejcinovic&psig=AOvVaw3VGWxPigfaZRB6z8xakeln&ust=1703532533955000&source=images&cd=vfe&opi=89978449&ved=0CBIQjRxqFwoTCLCR96_nqIMDFQAAAAAdAAAAABAD
41.1141534,20.798276,Nada Fileva,https://www.google.com/url?sa=i&url=https%3A%2F%2Fmk.m.wikipedia.org%2Fwiki%2F%25D0%259F%25D0%25BE%25D0%25B4%25D0%25B0%25D1%2582%25D0%25BE%25D1%2582%25D0%25B5%25D0%25BA%25D0%25B0%3A%25D0%259A%25D1%2583%25D1%259C%25D0%25B0_%25D0%25BD%25D0%25B0_%25D1%2583%25D0%25BB._%25E2%2580%259E%25D0%259D%25D0%25B0%25D0%25B4%25D0%25B0_%25D0%25A4%25D0%25B8%25D0%25BB%25D0%25B5%25D0%25B2%25D0%25B0%25E2%2580%259C_%25D0%25B1%25D1%2580._26_%25D0%259E%25D1%2585%25D1%2580%25D0%25B8%25D0%25B4.jpg&psig=AOvVaw0IqjpbTZrr_2vFK-UTYAvX&ust=1703532546349000&source=images&cd=vfe&opi=89978449&ved=0CBIQjRxqFwoTCOCtgLbnqIMDFQAAAAAdAAAAABAD
41.9986089,21.4377285,Soldier with gun on horse,https://www.google.com/url?sa=i&url=https%3A%2F%2Fwww.alamy.com%2Fstock-photo%2Farmy-of-republic-of-macedonia.html&psig=AOvVaw1kV4n9SVJ5_nIG20Uy1Ikh&ust=1703532558530000&source=images&cd=vfe&opi=89978449&ved=0CBIQjRxqFwoTCMCU477nqIMDFQAAAAAdAAAAABAD
41.1133728,20.7973177,Holy Mother of God Chelnichka,https://www.google.com/imgres?imgurl=https%3A%2F%2Ftravel2macedonia.com%2Fimages%2Fsights%2F17%2Fholy-mother-of-god-perivleptos-church.jpg&tbnid=O8_Q4mp0unY6LM&vet=12ahUKEwjCkY3D56iDAxVM7bsIHTiZBzUQMygGegQIARBT..i&imgrefurl=https%3A%2F%2Ftravel2macedonia.com%2Ftourist-attraction%2Fholy-mother-of-god-perivleptos-church-ohrid&docid=971LJzP2rRYjeM&w=550&h=300&q=Holy%20Mother%20of%20God%20Chelnichka%20Makedonija&hl=en-GB&ved=2ahUKEwjCkY3D56iDAxVM7bsIHTiZBzUQMygGegQIARBT
41.9918182,21.4296159,Atentat of Kiro Gligorov,https://www.google.com/url?sa=i&url=https%3A%2F%2Fwww.dw.com%2Fmk%2F%25D0%25BC%25D0%25B5%25D0%25BC%25D0%25BE%25D1%2580%25D0%25B8%25D1%2581%25D0%25BA%25D0%25B8-%25D0%25BF%25D0%25BB%25D0%25B0%25D1%2581%25D1%2582%25D0%25B5%25D0%25BB%25D0%25B8%25D0%25BD-%25D0%25B7%25D0%25BE%25D1%2588%25D1%2582%25D0%25BE-%25D0%25B7%25D0%25B0%25D0%25B1%25D0%25BE%25D1%2580%25D0%25B0%25D0%25B2-%25D0%25B7%25D0%25B0-%25D0%25BA%25D0%25B8%25D1%2580%25D0%25BE-%25D0%25B3%25D0%25BB%25D0%25B8%25D0%25B3%25D0%25BE%25D1%2580%25D0%25BE%25D0%25B2%2Fa-36971205&psig=AOvVaw3YhuaJpBWffLtHAwcyfsWY&ust=1703532658441000&source=images&cd=vfe&opi=89978449&ved=0CBIQjRxqFwoTCJjbm_DnqIMDFQAAAAAdAAAAABAI
41.1849403,20.8769171,St. Kozmo and Damjan,https://www.google.com/url?sa=i&url=https%3A%2F%2Fbookaweb.com%2Fad%2F1841&psig=AOvVaw3PqOMEz0nURAl80ouJYnfR&ust=1703532692221000&source=images&cd=vfe&opi=89978449&ved=0CBIQjRxqFwoTCIjusPrnqIMDFQAAAAAdAAAAABAD
41.9538189,21.288822,Holy Trinity and Holy George,https://www.google.com/url?sa=i&url=http%3A%2F%2Fjourneymacedonia.com%2Fchurchesmonasteries%2Fkumanovo-holy-trinity%2F&psig=AOvVaw1rsx6q-hxysv8Q8eTI8ZGO&ust=1703532705913000&source=images&cd=vfe&opi=89978449&ved=0CBIQjRxqFwoTCMCRlYLoqIMDFQAAAAAdAAAAABAD
41.0748026,21.3299172,"Auto and etno museum ""Filip""",https://www.google.com/url?sa=i&url=https%3A%2F%2Fwww.tripadvisor.com%2FAttraction_Review-g303862-d8059689-Reviews-Auto_Ethno_Museum_Filip-Bitola_Pelagonia_Region.html&psig=AOvVaw075lp2iJ8OpZ01B9KGg257&ust=1703532718718000&source=images&cd=vfe&opi=89978449&ved=0CBIQjRxqFwoTCLD3wYnoqIMDFQAAAAAdAAAAABAD
41.8117124,21.1617392,Golema Pesht,https://www.google.com/url?sa=i&url=https%3A%2F%2Fwww.facebook.com%2Fkingmarkoland%2Fposts%2Fgolema-pesht-cave-is-located-in-the-treska-river-valley-poreche-region-of-centra%2F781185511971563%2F%3Flocale%3Dpt_PT&psig=AOvVaw0ukobG_XEQ19lPTMfUb5qu&ust=1703532735421000&source=images&cd=vfe&opi=89978449&ved=0CBIQjRxqFwoTCOCB0Y_oqIMDFQAAAAAdAAAAABAD
41.3070686,21.1873038,St. Archangel Mihail,https://www.google.com/url?sa=i&url=https%3A%2F%2Fwww.tripadvisor.com%2FAttraction_Review-g612443-d2277697-Reviews-St_Archangel_Michael_Monastery-Prilep_Pelagonia_Region.html&psig=AOvVaw3G52FW5ASR1S3WGfSQK8ls&ust=1703532754503000&source=images&cd=vfe&opi=89978449&ved=0CBIQjRxqFwoTCMjNyZjoqIMDFQAAAAAdAAAAABAD
41.99275,21.43246,Assembly of the Republic of North Macedonia,https://www.google.com/url?sa=i&url=https%3A%2F%2Fwww.sobranie.mk%2Fassembly-palace.nspx&psig=AOvVaw0-mlYuw1N2EPFBNWNXxHR8&ust=1703532765721000&source=images&cd=vfe&opi=89978449&ved=0CBIQjRxqFwoTCNDt5p3oqIMDFQAAAAAdAAAAABAD
42.02043,21.38821,Scupi,https://www.google.com/url?sa=i&url=https%3A%2F%2Fwww.spottinghistory.com%2Fview%2F11243%2Fscupi%2F&psig=AOvVaw3Vp-E7KCqX9nZ9DF_R7ql_&ust=1703532776622000&source=images&cd=vfe&opi=89978449&ved=0CBIQjRxqFwoTCMiXt6ToqIMDFQAAAAAdAAAAABAD
42.00262,21.4358,Museum of Macedonia,https://www.google.com/url?sa=i&url=https%3A%2F%2Fen.wikipedia.org%2Fwiki%2FMuseum_of_the_Republic_of_North_Macedonia&psig=AOvVaw3IswFp-qRf0Bkih_BdPgwp&ust=1703532790677000&source=images&cd=vfe&opi=89978449&ved=0CBIQjRxqFwoTCJDD3KzoqIMDFQAAAAAdAAAAABAD
42.00056,21.42867,Government of the Republic of North Macedonia,https://www.google.com/url?sa=i&url=https%3A%2F%2Fwww.avc-group.com%2Fint%2Fen%2Freferences%2Fgovernment-of-the-republic-of-north-macedonia%2F&psig=AOvVaw0gM7v1eE4RVHhq132XOQWq&ust=1703532809073000&source=images&cd=vfe&opi=89978449&ved=0CBIQjRxqFwoTCIjI6LHoqIMDFQAAAAAdAAAAABAD
42.00834,21.4298,French Cemetery,https://www.google.com/url?sa=i&url=https%3A%2F%2Fmod.gov.mk%2F%25D1%2588%25D0%25B5%25D0%25BA%25D0%25B5%25D1%2580%25D0%25B8%25D0%25BD%25D1%2581%25D0%25BA%25D0%25B0-%25D0%25BE%25D0%25B4-%25D1%2584%25D1%2580%25D0%25B0%25D0%25BD%25D1%2586%25D1%2583%25D1%2581%25D0%25BA%25D0%25B8%25D1%2582%25D0%25B5-%25D0%25B2%25D0%25BE%25D0%25B5%25D0%25BD%25D0%25B8-%25D0%25B3%25D1%2580%25D0%25BE%25D0%25B1%2F&psig=AOvVaw1qjYNbyZrb6b8bxLjjsTa3&ust=1703532819714000&source=images&cd=vfe&opi=89978449&ved=0CBIQjRxqFwoTCMCZjrvoqIMDFQAAAAAdAAAAABAD
42.00391,21.43295,Contemporary Art Museum of Macedonia,https://www.google.com/url?sa=i&url=https%3A%2F%2Fvisitmacedonia.eu%2Fcontemporary-art-museum-of-macedonia%2F&psig=AOvVaw0rEBIKw_xvIRgRQCWL1jeb&ust=1703532838639000&source=images&cd=vfe&opi=89978449&ved=0CBIQjRxqFwoTCJDFwMPoqIMDFQAAAAAdAAAAABAD
41.11529,20.79099,Samuil's Fortress,https://www.google.com/url?sa=i&url=https%3A%2F%2Fmuzejohrid.mk%2Fen%2Ftsar-samuel-fortress&psig=AOvVaw19t7LGOYQkCeKxXJssgBY0&ust=1703532857516000&source=images&cd=vfe&opi=89978449&ved=0CBIQjRxqFwoTCJDux8roqIMDFQAAAAAdAAAAABAD
41.1128,20.79098,Plaoshnik,https://www.google.com/url?sa=i&url=https%3A%2F%2Fmacedonia-timeless.com%2Feng%2Fthings_to_do%2Fsenses%2Ftouch%2Farchaeology%2Fplaosnik%2F&psig=AOvVaw3UyTABI9IaXzf4MTicToPs&ust=1703532883118000&source=images&cd=vfe&opi=89978449&ved=0CBIQjRxqFwoTCLD7rNXoqIMDFQAAAAAdAAAAABAD
41.01088,21.34219,Heraclea Lyncestis,https://www.google.com/url?sa=i&url=https%3A%2F%2Fbitola.info%2Fheraclea-lyncestis-bitola%2F&psig=AOvVaw1wjwKP6GdoCV6KG6Zr8vLm&ust=1703532893626000&source=images&cd=vfe&opi=89978449&ved=0CBIQjRxqFwoTCKiX2NvoqIMDFQAAAAAdAAAAABAD
41.99194,21.45161,Pension and Disability Insurance Fund of Macedonia,https://www.google.com/url?sa=i&url=https%3A%2F%2Fdzr.mk%2Fen%2F210622-37-pdif-revenue-funds-are-budget-rnm&psig=AOvVaw0QpReTQAsxHzu3RxI1D4v6&ust=1703532905531000&source=images&cd=vfe&opi=89978449&ved=0CBIQjRxqFwoTCNjNguLoqIMDFQAAAAAdAAAAABAD
41.99461,21.41074,Ministry of Economy,https://www.google.com/url?sa=i&url=https%3A%2F%2Fwww.facebook.com%2FMinistryOfEconomyOfficial%2F&psig=AOvVaw3NFDjq6c6IzKOz0fLrEtPp&ust=1703532919829000&source=images&cd=vfe&opi=89978449&ved=0CBIQjRxqFwoTCPi4rufoqIMDFQAAAAAdAAAAABAH
41.02993,21.33512,Magaza gallery,https://www.google.com/url?sa=i&url=https%3A%2F%2Fbitola.info%2Fgallery-magaza-bitola%2F&psig=AOvVaw1eiQkFMJrnJTuVmUwf3WQM&ust=1703532931876000&source=images&cd=vfe&opi=89978449&ved=0CBIQjRxqFwoTCJjpwO3oqIMDFQAAAAAdAAAAABAD
41.99872,21.4357,Daut Pasha Hamam National Gallery,https://www.google.com/url?sa=i&url=https%3A%2F%2Fnationalgallery.mk%2Fdaut-pasha-hamam%2F%3Flang%3Den&psig=AOvVaw1y7U0aIZK_ynE_aSp_llom&ust=1703532943968000&source=images&cd=vfe&opi=89978449&ved=0CBIQjRxqFwoTCOjwivLoqIMDFQAAAAAdAAAAABAD
41.99792,21.43318,Museum of the Macedonian struggle,https://www.google.com/url?sa=i&url=https%3A%2F%2Fen.wikipedia.org%2Fwiki%2FMuseum_of_the_Macedonian_Struggle_%2528Skopje%2529&psig=AOvVaw1fehQCww4FJIq0iTrrZBes&ust=1703532953501000&source=images&cd=vfe&opi=89978449&ved=0CBIQjRxqFwoTCLjSt_boqIMDFQAAAAAdAAAAABAD
41.99846,21.43338,Holocaust Memorial Center for the Jews of Macedonia,https://www.google.com/url?sa=i&url=https%3A%2F%2Fmacedonia-timeless.com%2Feng%2Fthings_to_do%2Fsenses%2Ftouch%2Fculture-history%2Fmuseums%2Fholocaust_memorialcenterforthejewsofmacedonia%2F&psig=AOvVaw06O4XnzugSPZCa3w9vLo-g&ust=1703532962168000&source=images&cd=vfe&opi=89978449&ved=0CBIQjRxqFwoTCKDE1vzoqIMDFQAAAAAdAAAAABAD
41.99989,21.45234,Municipality of Gazi Baba,https://www.google.com/url?sa=i&url=https%3A%2F%2Fwww.vecer.press%2F%25D0%25B3%25D0%25B0%25D0%25B7%25D0%25B8-%25D0%25B1%25D0%25B0%25D0%25B1%25D0%25B0-%25D0%25B3%25D0%25BE-%25D1%2580%25D0%25B0%25D1%2581%25D0%25BA%25D0%25B8%25D0%25BD%25D1%2583%25D0%25B2%25D0%25B0-%25D0%25B4%25D0%25BE%25D0%25B3%25D0%25BE%25D0%25B2%25D0%25BE%25D1%2580%25D0%25BE%25D1%2582-%25D1%2581%25D0%25BE-%25D0%25BA%25D0%25BE%2F&psig=AOvVaw3d-NoyBsUXFBooZ9Ee42xn&ust=1703532995412000&source=images&cd=vfe&opi=89978449&ved=0CBIQjRxqFwoTCNCHu4rpqIMDFQAAAAAdAAAAABAD
41.99377,21.42303,Ministry of Education and Science,https://www.google.com/url?sa=i&url=https%3A%2F%2Fen.wikipedia.org%2Fwiki%2FMinistry_of_Education_and_Science_%2528North_Macedonia%2529&psig=AOvVaw2WIZ2VrDPeDuih47lesrv2&ust=1703533004806000&source=images&cd=vfe&opi=89978449&ved=0CBIQjRxqFwoTCJD2nI_pqIMDFQAAAAAdAAAAABAD
41.9909,21.42901,Museum of the City of Skopje,https://www.google.com/url?sa=i&url=https%3A%2F%2Fen.wikipedia.org%2Fwiki%2FMuseum_of_the_City_of_Skopje&psig=AOvVaw2gE_4Ne3EWBTqMnlrwO138&ust=1703533014399000&source=images&cd=vfe&opi=89978449&ved=0CBIQjRxqFwoTCLj--JPpqIMDFQAAAAAdAAAAABAD
42.00106,21.41375,SJO - Special Public Prosecutor,https://www.google.com/url?sa=i&url=https%3A%2F%2Fmeta.mk%2Fen%2Ftag%2Fsjo-en%2Fpage%2F2%2F&psig=AOvVaw3zbo-AJ4mZcZRbWLE_qr6p&ust=1703533061111000&source=images&cd=vfe&opi=89978449&ved=0CBIQjRxqFwoTCMjwn63pqIMDFQAAAAAdAAAAABAD
40.91395,20.74064,Monastery of Saint Naum,https://www.google.com/url?sa=i&url=https%3A%2F%2Fen.wikipedia.org%2Fwiki%2FMonastery_of_Saint_Naum&psig=AOvVaw0vtnGEsGkwnewc0JS5XNAg&ust=1703533078696000&source=images&cd=vfe&opi=89978449&ved=0CBIQjRxqFwoTCJCt8rLpqIMDFQAAAAAdAAAAABAH
42.2089,22.36244,Monastery of St. Joakim Osogovski,https://www.google.com/url?sa=i&url=https%3A%2F%2Fwww.inyourpocket.com%2Fstip-radovis%2Fmonastery-of-st-joakim-osogovski_75846f&psig=AOvVaw170Atj1FYrlAv7GZZzEOtJ&ust=1703533091732000&source=images&cd=vfe&opi=89978449&ved=0CBIQjRxqFwoTCOCjj7rpqIMDFQAAAAAdAAAAABAD
42.01327,22.22828,Lesnovo Monastery,https://www.google.com/url?sa=i&url=https%3A%2F%2Fen.wikipedia.org%2Fwiki%2FLesnovo_Monastery&psig=AOvVaw07YwJrc4zi2-5mgFRWD071&ust=1703533108100000&source=images&cd=vfe&opi=89978449&ved=0CBIQjRxqFwoTCMD9pcHpqIMDFQAAAAAdAAAAABAD
42.12561,21.4283,St. Holy Mother of God Monastery,https://www.google.com/url?sa=i&url=https%3A%2F%2Fwww.photohound.co%2Fspot%2Fholy-mother-of-god-eleusa-monastery-1005462&psig=AOvVaw0P3b9a-l7V70B8wmfNDTB3&ust=1703533118936000&source=images&cd=vfe&opi=89978449&ved=0CBIQjRxqFwoTCJDe8MnpqIMDFQAAAAAdAAAAABAD
42.10976,21.46958,Saint Nicholas Monastery,https://www.google.com/url?sa=i&url=https%3A%2F%2Freligiana.com%2Fst-nicholas-monastery-matka&psig=AOvVaw0iO1xxtzBii4sCE2y881Uz&ust=1703533138863000&source=images&cd=vfe&opi=89978449&ved=0CBIQjRxqFwoTCICGiNHpqIMDFQAAAAAdAAAAABAD
41.92145,22.41122,Municipality of Kochani,https://www.google.com/url?sa=i&url=https%3A%2F%2Fkocani.gov.mk%2F%25D0%25BA%25D0%25BE%25D0%25BD%25D1%2582%25D0%25B0%25D0%25BA%25D1%2582%2F&psig=AOvVaw04SwYS5dz3PIoKXoVbH2Of&ust=1703533159421000&source=images&cd=vfe&opi=89978449&ved=0CBIQjRxqFwoTCNC4jtnpqIMDFQAAAAAdAAAAABAD
41.92155,22.40907,Medieval Tower,https://www.google.com/url?sa=i&url=https%3A%2F%2Fwww.alamy.com%2Foctagonal-tower-inside-the-medieval-castle-of-platamonas-pieria-macedonia-greece-image244295355.html&psig=AOvVaw1eV0Q5vSUZu1BAhac8TXxW&ust=1703533176166000&source=images&cd=vfe&opi=89978449&ved=0CBIQjRxqFwoTCKj18eHpqIMDFQAAAAAdAAAAABAD
41.7995125,22.289829,Bargala,https://www.google.com/url?sa=i&url=https%3A%2F%2Fen.wikipedia.org%2Fwiki%2FBargala&psig=AOvVaw0hIHu5wt3iXyBWbViWZCip&ust=1703533190928000&source=images&cd=vfe&opi=89978449&ved=0CBIQjRxqFwoTCLCo3OfpqIMDFQAAAAAdAAAAABAH
41.5130946,20.9663459,Kita Castle,https://www.google.com/url?sa=i&url=https%3A%2F%2Fkicevo.mk%2Fkitino-kale%2F&psig=AOvVaw21oq7zjXfDGF9R-_9-1Ha3&ust=1703533302341000&source=images&cd=vfe&opi=89978449&ved=0CBIQjRxqFwoTCPis_p7qqIMDFQAAAAAdAAAAABAD
41.02001,21.34194,Bus Station Bitola,https://www.google.com/url?sa=i&url=https%3A%2F%2Fcommons.wikimedia.org%2Fwiki%2FFile%3ABus_station%2C_Bitola%2C_Republic_of_Macedonia%2C_summer_2011.JPG&psig=AOvVaw0RVBXGpa_SAOKDH1-mrvcr&ust=1703533319012000&source=images&cd=vfe&opi=89978449&ved=0CBIQjRxqFwoTCMisiavqqIMDFQAAAAAdAAAAABAD
40.86703,20.98876,Old Basilica,https://www.google.com/url?sa=i&url=https%3A%2F%2Fwww.istockphoto.com%2Fphoto%2Fbasilica-of-st-clement-in-ohrid-in-macedonia-gm1135698970-302218130&psig=AOvVaw0B-xHjK2rCBilFhoCoK453&ust=1703533404541000&source=images&cd=vfe&opi=89978449&ved=0CBIQjRxqFwoTCMCm4t3qqIMDFQAAAAAdAAAAABAD
40.86813,20.99042,Roman Cistern,https://www.google.com/url?sa=i&url=https%3A%2F%2Fwww.dreamstime.com%2Froman-aqueduct-skopje-macedonia-dates-time-roman-empire-byzantium-time-justinian-i-image172136371&psig=AOvVaw18FaG084CbEviAYRKw51Dv&ust=1703533452803000&source=images&cd=vfe&opi=89978449&ved=0CBIQjRxqFwoTCNjap-rqqIMDFQAAAAAdAAAAABAD
,,"October the 11th,Stobi,Czar\u2019s Towers,The Monastery of Saint Naum,Bay of Bones,Krushevo PD,Krushevo FD,Krushevo LC,Museum of the Ilinden Uprising and the Republic of Krushevo,Registry Office,Roman Theater of Heraclea Lyncestis,ancient theater of Stobi,Vardar Hill,Attorney General of Macedonia,Archaeological Museum of Macedonia,Tumba Madzhari,Markovi Kuli,Porta Macedonia,Gradishte,Pasha's Mosque,Stibera,Mound of the undefeated,Church of St. George,General Staff of the Macedonian Army,Stone Bridge,Treskavec,Scupi,Bey's Hamam,Sv. Trojitca,Skopje Fortress,Castle Stakle,Great Basilica,Holy Sunday,Karpalak massacre,Goriche,Kale,Foundry,Peshta,Marko's Wall,Monastery of Mariovo,Gradot / Markovi Kuli,Gradishte,Babo,Staro Bonche,Pelagon,Fellowship House,Kula,1 \u0411\u0440\u0438\u0433\u0430\u0434\u0430,St. Peter,Leshok,Freedom Monument,Devini Kuli,St. Nicholas,Blazhe Koneski Memorial House,House of Gjoshev,Fortress of Bitola,Mucheinci,Museum of Bitola,People's hero Kuzman Josifoski-Pitu Memorial museum,Museum,Tatarchev House",
